City,Lat,Lng,Max Temp,Humidity,Cloudiness,Wind Speed,Country,Date
meulaboh,4.14,96.13,77.27,87,80,4.23,ID,1593541682
severo-kurilsk,50.68,156.12,46.02,87,81,16.87,RU,1593541682
berlevag,70.86,29.09,41.0,100,75,24.16,NO,1593541683
aguas formosas,-17.08,-40.94,68.88,90,100,3.74,BR,1593541683
ushuaia,-54.8,-68.3,32.0,92,1,1.95,AR,1593541589
chlorakas,34.8,32.41,80.01,88,0,8.05,CY,1593541684
jamestown,42.1,-79.24,78.01,60,75,10.29,US,1593541684
port lincoln,-34.73,135.87,54.34,81,0,16.67,AU,1593541684
mataura,-46.19,168.86,39.0,83,68,3.0,NZ,1593541685
vaini,-21.2,-175.2,71.6,94,75,8.05,TO,1593541685
new norfolk,-42.78,147.06,41.0,83,91,2.55,AU,1593541685
busselton,-33.65,115.33,52.0,68,58,13.15,AU,1593541685
yellowknife,62.46,-114.35,77.0,41,20,6.93,CA,1593541685
hermanus,-34.42,19.23,54.0,90,18,7.63,ZA,1593541686
westport,41.14,-73.36,71.01,88,90,8.05,US,1593541487
buraydah,26.33,43.98,100.4,19,8,8.05,SA,1593541686
ahome,25.92,-109.18,88.0,55,90,4.7,MX,1593541686
punta arenas,-53.15,-70.92,33.8,80,75,3.89,CL,1593541446
saskylakh,71.92,114.08,79.02,37,19,8.12,RU,1593541687
jiamusi,46.83,130.35,59.65,88,0,2.59,CN,1593541687
rikitea,-23.12,-134.97,69.04,58,6,18.12,PF,1593541687
kapaa,22.08,-159.32,80.6,74,90,11.41,US,1593541471
mar del plata,-38.0,-57.56,52.0,81,90,21.92,AR,1593541558
hasaki,35.73,140.83,78.8,88,75,13.87,JP,1593541688
port alfred,-33.59,26.89,57.0,89,12,5.01,ZA,1593541688
prince rupert,54.32,-130.32,57.2,82,40,5.82,CA,1593541689
bac lieu,9.29,105.72,80.1,83,100,3.69,VN,1593541689
rawtenstall,53.7,-2.28,60.01,80,99,1.99,GB,1593541689
leningradskiy,69.38,178.42,33.55,96,100,4.65,RU,1593541689
red wing,44.56,-92.53,84.99,70,40,9.17,US,1593541627
aitape,-3.14,142.35,77.5,82,87,4.65,PG,1593541690
chuy,-33.7,-53.46,58.86,96,100,5.03,UY,1593541690
albany,42.6,-73.97,78.01,66,73,3.96,US,1593541690
bredasdorp,-34.53,20.04,53.6,93,14,2.93,ZA,1593541690
ola,59.58,151.28,50.65,74,100,2.75,RU,1593541690
pakxan,18.38,103.66,76.33,88,97,3.0,LA,1593541691
bluff,-46.6,168.33,39.0,83,78,3.0,NZ,1593541691
puerto ayacucho,5.66,-67.62,87.8,55,20,10.29,VE,1593541691
hobart,-42.88,147.33,39.99,93,81,3.36,AU,1593541691
saint-philippe,-21.36,55.77,68.0,60,28,6.93,RE,1593541691
muli,2.92,73.57,83.82,74,16,5.88,MV,1593541692
cartagena,10.4,-75.51,89.6,70,40,6.93,CO,1593541435
cherskiy,68.75,161.3,43.68,71,36,8.05,RU,1593541692
punahana,27.87,77.2,97.95,34,8,12.5,IN,1593541693
lagos,6.58,3.75,78.8,88,75,6.93,NG,1593541403
vilhena,-12.74,-60.15,86.0,51,40,9.17,BR,1593541693
arraial do cabo,-22.97,-42.03,77.0,69,90,20.8,BR,1593541693
hokitika,-42.72,170.97,41.85,69,0,5.91,NZ,1593541694
progreso,21.28,-89.67,93.99,56,75,16.11,MX,1593541694
ambovombe,-25.17,46.08,63.1,76,2,6.49,MG,1593541694
iquique,-20.22,-70.14,62.6,67,20,11.41,CL,1593541694
atuona,-9.8,-139.03,80.4,73,1,18.79,PF,1593541694
gazojak,41.19,61.4,80.6,16,0,3.56,TM,1593541695
kirkland lake,48.14,-80.04,80.6,51,1,3.36,CA,1593541596
narsaq,60.92,-46.05,55.4,50,20,10.29,GL,1593541695
totma,59.97,42.76,55.4,74,73,7.45,RU,1593541695
tasiilaq,65.61,-37.64,46.4,52,75,28.86,GL,1593541696
puerto ayora,-0.74,-90.35,77.0,73,75,24.16,EC,1593541696
bambous virieux,-20.34,57.76,68.0,93,20,6.93,MU,1593541696
ahipara,-35.17,173.17,52.27,74,14,11.41,NZ,1593541696
constitucion,-35.33,-72.42,55.62,72,88,6.26,CL,1593541696
nikolskoye,59.7,30.79,61.0,72,40,13.42,RU,1593541697
hilo,19.73,-155.09,82.4,61,40,3.36,US,1593541697
dikson,73.51,80.55,44.06,85,95,3.51,RU,1593541697
hofn,64.25,-15.21,44.73,79,27,11.68,IS,1593541697
henties bay,-22.12,14.28,69.01,53,0,8.16,NA,1593541697
ostrovnoy,68.05,39.51,56.97,55,86,16.55,RU,1593541698
castro,-24.79,-50.01,66.61,74,2,21.99,BR,1593541647
cabo san lucas,22.89,-109.91,82.99,74,75,11.41,MX,1593541698
mandalgovi,45.76,106.27,64.2,50,25,12.33,MN,1593541698
russell,32.35,-85.2,91.0,62,75,8.05,US,1593541699
mount gambier,-37.83,140.77,42.8,81,0,11.41,AU,1593541699
port-gentil,-0.72,8.78,75.2,83,90,10.29,GA,1593541699
florianopolis,-27.61,-48.5,75.0,83,20,26.4,BR,1593541699
pakruojis,55.97,23.87,62.6,63,20,13.87,LT,1593541699
tepalcatepec,19.18,-102.85,92.73,42,36,3.15,MX,1593541700
uppsala,60.0,17.75,62.6,82,79,9.17,SE,1593541700
sinop,41.77,34.87,73.4,83,0,3.36,TR,1593541653
lasa,46.62,10.7,66.2,72,40,8.05,IT,1593541700
choma,-16.81,26.95,56.84,54,0,3.31,ZM,1593541700
hithadhoo,-0.6,73.08,84.65,65,0,4.27,MV,1593541701
butaritari,3.07,172.79,81.82,73,27,3.67,KI,1593541701
thompson,55.74,-97.86,59.0,87,90,9.17,CA,1593541657
torbay,47.67,-52.73,71.6,83,90,14.99,CA,1593541701
thongwa,16.76,96.53,78.8,94,75,5.82,MM,1593541702
cidreira,-30.18,-50.21,61.5,97,100,5.86,BR,1593541702
rorvik,64.86,11.24,48.2,76,75,17.22,NO,1593541702
talnakh,69.49,88.4,53.6,81,28,15.66,RU,1593541702
longyearbyen,78.22,15.64,48.2,45,75,4.7,SJ,1593541703
fortuna,40.6,-124.16,64.0,72,1,16.11,US,1593541411
tuktoyaktuk,69.45,-133.04,59.0,72,90,2.24,CA,1593541703
odweyne,9.41,45.06,79.66,49,60,19.3,SO,1593541703
havelock,34.88,-76.9,89.01,48,75,9.17,US,1593541610
souillac,-20.52,57.52,64.4,93,20,6.93,MU,1593541704
solnechnyy,50.72,136.63,60.42,64,36,2.17,RU,1593541704
margate,51.38,1.39,64.0,85,100,5.99,GB,1593541704
galesong,-5.32,119.37,73.4,100,20,1.12,ID,1593541704
malpe,13.35,74.72,78.8,88,40,4.21,IN,1593541704
obregon,11.96,-85.96,78.8,78,40,13.87,NI,1593541705
port elizabeth,-33.92,25.57,59.0,87,0,6.93,ZA,1593541705
rokiskis,55.97,25.58,59.94,87,11,9.19,LT,1593541705
east london,-33.02,27.91,60.98,67,1,8.52,ZA,1593541705
qaanaaq,77.48,-69.36,40.66,76,92,2.24,GL,1593541705
radcliff,37.84,-85.95,78.8,78,75,6.93,US,1593541706
abha,18.22,42.51,78.8,50,40,4.7,SA,1593541706
carnarvon,-24.87,113.63,59.0,100,4,8.05,AU,1593541706
eyl,7.98,49.82,82.53,64,64,29.59,SO,1593541707
gambela,8.25,34.58,75.45,78,96,3.29,ET,1593541707
san patricio,19.22,-104.7,89.6,66,20,9.17,MX,1593541707
mayahi,13.96,7.67,93.07,33,66,2.8,NE,1593541707
huilong,31.81,121.66,75.0,91,11,1.01,CN,1593541708
toropets,56.5,31.64,59.13,86,61,4.76,RU,1593541708
cravo norte,6.3,-70.2,85.01,70,11,4.79,CO,1593541708
vanavara,60.34,102.28,63.32,92,90,2.84,RU,1593541708
sidi ali,36.1,0.42,81.81,47,23,8.41,DZ,1593541708
lebu,-37.62,-73.65,53.19,85,99,18.3,CL,1593541709
sorland,67.67,12.69,46.4,75,40,28.86,NO,1593541709
nouadhibou,20.93,-17.03,73.4,69,0,20.8,MR,1593541709
avarua,-21.21,-159.78,75.2,78,77,14.99,CK,1593541709
broome,42.25,-75.83,72.0,68,90,9.17,US,1593541710
georgetown,5.41,100.34,82.4,94,20,3.36,MY,1593541710
ovar,40.86,-8.63,72.0,88,90,9.17,PT,1593541710
vanimo,-2.67,141.3,77.88,79,82,2.73,PG,1593541710
tondano,1.3,124.91,73.4,100,20,2.35,ID,1593541711
dourbali,11.81,15.86,84.88,53,99,5.97,TD,1593541711
fort saint james,54.43,-124.25,57.56,70,98,5.73,CA,1593541711
sobolevo,54.43,31.9,60.01,91,61,4.52,RU,1593541711
la serena,-29.91,-71.25,59.0,72,42,8.05,CL,1593541711
pacific grove,36.62,-121.92,77.0,72,1,6.93,US,1593541712
lac du bonnet,50.25,-96.06,86.0,47,65,3.0,CA,1593541712
sioux lookout,50.1,-91.92,80.6,65,75,8.05,CA,1593541712
crotone,39.09,17.12,86.0,40,0,14.99,IT,1593541454
sitka,57.05,-135.33,55.4,76,75,4.7,US,1593541713
murgab,37.5,61.97,80.6,32,0,5.26,TM,1593541713
aklavik,68.22,-135.01,62.6,67,75,2.24,CA,1593541713
tiksi,71.69,128.87,45.05,65,1,5.12,RU,1593541713
codrington,-38.27,141.97,44.19,73,0,12.3,AU,1593541713
kavieng,-2.57,150.8,81.55,78,88,8.9,PG,1593541714
quelimane,-17.88,36.89,71.01,77,40,5.82,MZ,1593541714
deputatskiy,69.3,139.9,48.58,67,38,2.77,RU,1593541714
sao joao da barra,-21.64,-41.05,77.0,61,75,18.34,BR,1593541714
porbandar,21.64,69.61,84.65,75,90,5.44,IN,1593541714
dosso,13.05,3.19,90.3,45,80,2.42,NE,1593541715
vardo,70.37,31.11,42.8,93,75,16.11,NO,1593541715
preston,53.77,-2.72,59.0,77,20,4.7,GB,1593541715
saldanha,-33.01,17.94,59.0,77,0,3.36,ZA,1593541715
freeport,40.66,-73.58,77.0,69,90,8.05,US,1593541557
nara,34.69,135.8,78.01,80,100,1.01,JP,1593541716
alenquer,-1.94,-54.74,86.0,74,20,5.82,BR,1593541716
mazatlan,23.22,-106.42,91.4,55,40,11.41,MX,1593541716
torres novas,39.48,-8.54,82.99,42,0,3.0,PT,1593541716
saint george,37.1,-113.58,78.8,11,1,3.36,US,1593541565
tucumcari,35.17,-103.72,93.2,11,1,29.97,US,1593541717
cayenne,4.93,-52.33,86.0,70,7,13.87,GF,1593541682
ouesso,1.61,16.05,71.64,91,57,2.06,CG,1593541717
balabac,7.99,117.06,82.24,80,82,10.13,PH,1593541717
bethel,41.37,-73.41,70.0,83,75,5.82,US,1593541718
archidona,37.1,-4.39,81.0,72,0,1.99,ES,1593541718
guerrero negro,27.98,-114.06,74.53,52,2,10.4,MX,1593541488
meadow lake,34.8,-106.54,84.2,9,1,14.99,US,1593541718
grand gaube,-20.01,57.66,68.0,80,2,5.01,MU,1593541719
lorengau,-2.02,147.27,81.93,73,100,5.75,PG,1593541719
chokurdakh,70.63,147.92,43.95,57,2,7.16,RU,1593541719
ribeira grande,38.52,-28.7,71.6,83,40,19.46,PT,1593541719
coolum beach,-26.53,153.1,55.0,96,21,5.19,AU,1593541720
luang prabang,19.89,102.13,76.05,86,100,1.77,LA,1593541720
peque,7.02,-75.91,79.93,55,100,1.23,CO,1593541720
bengkulu,-3.8,102.27,76.1,77,0,3.85,ID,1593541721
artyshta,54.12,86.29,60.39,88,99,4.56,RU,1593541721
forestville,38.85,-76.88,90.0,38,40,6.93,US,1593541556
ancud,-41.87,-73.82,51.01,93,90,8.05,CL,1593541721
dunedin,-45.87,170.5,41.0,89,100,1.99,NZ,1593541721
barrow,71.29,-156.79,39.2,86,90,3.36,US,1593541722
mahajanga,-15.72,46.32,77.0,83,40,6.93,MG,1593541722
tsabong,-26.02,22.4,51.98,42,0,4.52,BW,1593541722
bridlington,54.08,-0.19,61.0,72,76,6.93,GB,1593541722
bezhetsk,57.79,36.7,64.78,72,93,14.85,RU,1593541722
matay,28.42,30.78,87.28,16,0,13.0,EG,1593541723
kaduqli,11.02,29.72,83.07,58,35,9.28,SD,1593541723
bathsheba,13.22,-59.52,87.8,66,20,20.8,BB,1593541723
merrill,45.18,-89.68,86.0,55,40,11.41,US,1593541723
port blair,11.67,92.75,81.97,78,100,14.25,IN,1593541452
caravelas,-17.71,-39.25,73.42,89,100,4.88,BR,1593541724
sibiti,-3.68,13.35,72.09,72,40,0.85,CG,1593541724
mattru,7.62,-11.83,77.72,92,60,4.0,SL,1593541724
palimbang,6.21,124.19,78.62,80,53,3.58,PH,1593541724
kodiak,57.79,-152.41,55.4,66,1,11.41,US,1593541690
hamilton,39.18,-84.53,89.01,66,40,3.36,US,1593541521
houston,29.76,-95.36,93.0,59,20,10.29,US,1593541039
harer,9.31,42.13,64.58,78,65,6.67,ET,1593541725
madras,13.09,80.28,82.4,74,75,5.82,IN,1593541436
iranshahr,27.2,60.68,100.4,37,14,9.17,IR,1593541726
pevek,69.7,170.31,34.41,97,97,8.93,RU,1593541726
chapais,49.78,-74.85,80.6,39,1,8.05,CA,1593541726
mount isa,-20.73,139.5,60.8,55,0,5.82,AU,1593541726
pangnirtung,66.15,-65.71,37.4,93,90,11.41,CA,1593541726
mayo,38.89,-76.51,88.0,48,1,6.93,US,1593541727
kavaratti,10.57,72.64,83.57,77,100,13.96,IN,1593541727
zaltan,32.95,11.87,78.8,64,0,12.19,LY,1593541727
tarko-sale,64.92,77.78,52.0,91,98,18.3,RU,1593541727
alvand,36.32,49.17,55.94,50,7,7.76,IR,1593541727
riyadh,24.69,46.72,98.6,14,2,5.82,SA,1593541728
rocha,-34.48,-54.33,56.23,95,100,13.69,UY,1593541728
hervey bay,-25.3,152.85,57.99,92,26,5.01,AU,1593541556
fort nelson,58.81,-122.7,64.4,68,75,6.93,CA,1593541728
bagdarin,54.43,113.6,55.54,84,97,4.41,RU,1593541728
yaguachi,-2.12,-79.68,80.6,69,75,8.05,EC,1593541729
khatanga,71.97,102.5,66.72,64,87,6.91,RU,1593541729
singaparna,-7.35,108.11,71.4,91,79,1.32,ID,1593541729
cape town,-33.93,18.42,57.99,93,20,2.24,ZA,1593541454
arkhara,49.42,130.08,57.99,91,8,4.29,RU,1593541729
witbank,-25.87,29.23,49.21,47,0,2.59,ZA,1593541730
belmonte,-15.86,-38.88,78.8,74,75,8.05,BR,1593541730
pinheiro,-2.52,-45.08,80.46,90,43,2.84,BR,1593541730
reinbek,53.52,10.25,62.01,58,99,9.01,DE,1593541730
tafalla,42.53,-1.67,86.0,74,40,6.93,ES,1593541730
eden,36.49,-79.77,90.0,55,1,4.7,US,1593541731
okhotsk,59.38,143.3,51.82,60,11,11.77,RU,1593541731
lompoc,34.64,-120.46,66.99,72,0,10.29,US,1593541731
alofi,-19.06,-169.92,75.2,100,97,3.36,NU,1593541575
sao filipe,14.9,-24.5,75.94,69,7,16.37,CV,1593541732
ayan,56.45,138.17,51.08,90,98,9.6,RU,1593541732
upernavik,72.79,-56.15,40.12,75,53,10.51,GL,1593541732
cairo,30.06,31.25,84.2,35,0,11.41,EG,1593541593
grand-lahou,5.14,-5.02,77.5,83,81,9.55,CI,1593541733
uyemskiy,64.47,40.85,64.4,42,20,8.95,RU,1593541733
hami,42.8,93.45,75.0,23,0,7.11,CN,1593541733
kondagaon,19.6,81.67,76.33,81,32,2.42,IN,1593541733
vila velha,-20.33,-40.29,75.99,73,75,4.7,BR,1593541734
uyuni,-20.46,-66.83,47.98,35,0,15.66,BO,1593541734
palmer,42.16,-72.33,75.99,73,90,6.93,US,1593541483
tahoua,14.89,5.27,91.4,38,59,4.7,NE,1593541734
vila franca do campo,37.72,-25.43,68.0,94,75,17.22,PT,1593541734
ferme-neuve,46.7,-75.45,80.01,46,34,7.52,CA,1593541606
asosa,10.07,34.53,64.67,97,93,1.81,ET,1593541735
yashan,22.2,109.94,77.32,90,100,2.84,CN,1593541735
litovko,49.24,135.17,59.38,92,0,2.86,RU,1593541735
provideniya,64.38,-173.3,43.21,89,100,8.43,RU,1593541735
clyde river,70.47,-68.59,35.6,93,75,11.41,CA,1593541736
venice,27.1,-82.45,91.0,66,1,8.05,US,1593541736
lavrentiya,65.58,-171.0,43.99,77,100,9.51,RU,1593541737
dzhida,50.68,106.18,62.55,64,15,4.25,RU,1593541737
aracoiaba da serra,-23.51,-47.61,75.99,48,1,11.01,BR,1593541737
santa isabel,-23.32,-46.22,77.0,41,87,19.46,BR,1593541705
beaufort,5.35,115.75,80.6,88,75,2.55,MY,1593541738
yucca valley,34.11,-116.43,88.0,21,0,3.0,US,1593541600
salalah,17.02,54.09,84.2,89,75,8.05,OM,1593541443
nabire,-3.37,135.48,74.82,88,99,3.51,ID,1593541506
mabaruma,8.2,-59.78,83.48,84,39,4.43,GY,1593541739
norman wells,65.28,-126.83,68.0,64,75,18.34,CA,1593541629
tautira,-17.73,-149.15,77.0,65,20,3.36,PF,1593541739
verkhnevilyuysk,63.45,120.32,64.69,59,0,2.77,RU,1593541739
itacoatiara,-3.14,-58.44,86.47,63,73,4.34,BR,1593541740
ilulissat,69.22,-51.1,42.8,81,75,5.82,GL,1593541740
esperance,-33.87,121.9,51.8,71,40,23.04,AU,1593541740
dabakala,8.37,-4.43,82.2,69,56,3.29,CI,1593541741
tabou,4.42,-7.35,77.16,80,57,10.6,CI,1593541741
jinji,23.23,110.83,80.26,79,100,1.79,CN,1593541741
kaihua,23.37,104.28,68.23,94,100,6.13,CN,1593541741
green river,41.53,-109.47,46.4,75,75,12.75,US,1593541742
crestview,30.76,-86.57,93.99,52,40,8.05,US,1593541714
luanda,-8.84,13.23,73.4,88,40,6.93,AO,1593541459
saint-joseph,-21.37,55.62,68.0,60,21,6.93,RE,1593541742
faanui,-16.48,-151.75,78.28,76,37,26.28,PF,1593541742
manbij,36.53,37.95,84.2,35,0,19.46,SY,1593541743
vostok,46.49,135.88,50.61,98,0,1.92,RU,1593541743
marfino,55.7,37.38,71.01,55,63,8.95,RU,1593541743
cockburn town,21.46,-71.14,86.0,62,40,11.41,TC,1593541743
okha,53.57,142.95,48.49,90,41,2.26,RU,1593541743
alice springs,-23.7,133.88,48.2,31,0,5.82,AU,1593541744
horodyshche,49.28,31.45,67.23,88,30,7.76,UA,1593541744
jutai,-5.18,-68.9,89.42,55,59,1.52,BR,1593541744
mahebourg,-20.41,57.7,64.4,93,20,6.93,MU,1593541744
san miguel ixtahuacan,15.25,-91.75,66.99,64,100,3.0,GT,1593541745
jeremie,18.65,-74.12,84.0,69,15,1.83,HT,1593541745
vagamo,61.88,9.1,57.15,66,99,5.5,NO,1593541745
labuhan,-6.88,112.21,76.91,83,78,7.07,ID,1593541745
qaqortoq,60.72,-46.03,55.4,50,20,10.29,GL,1593541746
lethem,3.38,-59.8,83.23,74,86,2.46,GY,1593541746
mahanoro,-19.9,48.8,67.8,87,0,1.99,MG,1593541746
prainha,-1.8,-53.48,84.83,68,31,6.17,BR,1593541746
tabuk,17.42,121.44,75.58,85,97,2.13,PH,1593541747
kimberley,-28.73,24.76,44.6,56,0,4.03,ZA,1593541534
necochea,-38.55,-58.74,48.99,83,100,15.01,AR,1593541747
sept-iles,50.2,-66.38,69.8,68,40,4.7,CA,1593541532
zhigansk,66.77,123.37,65.79,57,14,6.58,RU,1593541748
namibe,-15.2,12.15,69.21,88,0,5.93,AO,1593541748
niquelandia,-14.47,-48.46,86.74,28,72,4.81,BR,1593541748
burriana,39.89,-0.09,81.0,68,0,5.5,ES,1593541748
omsukchan,62.53,155.8,44.85,58,0,6.78,RU,1593541748
erenhot,43.65,111.98,71.92,40,42,6.53,CN,1593541749
villamontes,-21.25,-63.5,74.79,31,0,11.54,BO,1593541749
valdivia,-39.81,-73.25,53.6,87,90,9.17,CL,1593541738
kjollefjord,70.95,27.35,42.8,81,75,20.8,NO,1593541749
vire,48.92,-0.83,71.6,68,90,16.11,FR,1593541749
pedernales,18.04,-71.74,91.4,55,20,16.11,DO,1593541750
karaton,-6.34,106.1,78.8,83,20,6.93,ID,1593541750
unguia,8.04,-77.09,87.8,70,40,3.85,CO,1593541750
monte alegre,-2.01,-54.07,86.74,64,7,5.55,BR,1593541750
shwebo,22.57,95.7,83.39,76,100,10.31,MM,1593541751
veisiejai,54.1,23.7,62.29,81,93,7.47,LT,1593541751
victoria,22.29,114.16,82.0,81,100,5.01,HK,1593541509
lagoa,39.05,-27.98,66.43,90,97,9.15,PT,1593541751
kota bahru,6.13,102.24,78.8,88,20,2.24,MY,1593541751
netivot,31.42,34.59,79.0,69,0,4.41,IL,1593541752
bodden town,19.28,-81.25,87.8,70,40,4.7,KY,1593541752
pafos,34.77,32.42,80.01,88,0,8.05,CY,1593541752
klaksvik,62.23,-6.59,50.0,66,99,12.75,FO,1593541753
denpasar,-8.65,115.22,78.8,100,40,10.29,ID,1593541753
maniitsoq,65.42,-52.9,46.92,77,97,14.03,GL,1593541753
afua,-0.16,-50.39,82.44,80,30,6.73,BR,1593541753
coahuayana,18.73,-103.68,90.9,44,22,5.68,MX,1593541754
la maddalena,41.21,9.41,82.4,48,0,5.82,IT,1593541754
enniscorthy,52.5,-6.56,64.0,93,75,11.41,IE,1593541754
carupano,10.67,-63.26,84.33,62,30,14.61,VE,1593541754
ozinki,51.18,49.68,56.08,69,16,6.04,RU,1593541754
ponta do sol,32.67,-17.1,70.0,73,75,10.29,PT,1593541755
wasilla,61.58,-149.44,57.2,76,40,3.56,US,1593541755
japura,-0.32,102.35,74.21,92,10,1.66,ID,1593541755
kaitangata,-46.28,169.85,43.0,74,98,15.01,NZ,1593541755
pokhara,28.23,83.98,72.99,83,73,1.83,NP,1593541755
tura,25.52,90.22,75.24,90,66,3.49,IN,1593541756
navahrudak,53.6,25.83,60.44,89,59,7.72,BY,1593541756
richards bay,-28.78,32.04,64.13,72,70,6.91,ZA,1593541756
kallaste,58.66,27.16,57.99,87,56,11.41,EE,1593541756
tanout,14.97,8.89,96.39,23,47,5.79,NE,1593541757
dingtao,35.07,115.56,73.2,82,53,4.76,CN,1593541757
malaya serdoba,52.47,44.95,56.57,74,83,5.48,RU,1593541757
komsomolskiy,40.43,71.72,78.8,36,98,2.24,UZ,1593541757
kayerkan,69.35,87.76,53.6,81,18,15.66,RU,1593541757
pangody,65.85,74.49,49.89,79,100,10.67,RU,1593541758
guadalupe y calvo,26.1,-106.97,76.55,41,93,5.06,MX,1593541758
padang,-0.95,100.35,77.76,80,15,5.59,ID,1593541758
ahuimanu,21.44,-157.84,80.6,74,75,6.93,US,1593541758
coquimbo,-29.95,-71.34,59.0,72,36,8.05,CL,1593541468
amahai,-3.33,128.92,79.0,100,88,2.42,ID,1593541759
airai,-8.93,125.41,54.59,83,92,1.92,TL,1593541759
haines junction,60.75,-137.51,62.1,38,80,2.71,CA,1593541649
waiouru,-39.48,175.67,34.07,98,97,6.53,NZ,1593541759
campbell river,50.02,-125.24,64.4,48,20,12.75,CA,1593541760
murray bridge,-35.12,139.27,51.01,59,0,8.05,AU,1593541760
rawson,-43.3,-65.1,45.27,88,94,20.69,AR,1593541760
plettenberg bay,-34.05,23.37,59.38,78,0,4.76,ZA,1593541760
sanchursk,56.94,47.25,49.57,85,27,4.45,RU,1593541760
svetlaya,46.54,138.33,52.92,85,13,1.92,RU,1593541761
jardim,-21.48,-56.14,82.53,59,50,6.67,BR,1593541761
dwarka,22.24,68.97,86.09,75,100,6.49,IN,1593541761
yulara,-25.24,130.99,44.6,42,0,3.36,AU,1593541761
dingle,11.0,122.67,76.73,85,1,2.59,PH,1593541762
la ronge,55.1,-105.28,57.2,93,90,11.41,CA,1593541762
hobyo,5.35,48.53,79.68,75,100,25.17,SO,1593541762
kemijarvi,66.71,27.43,57.0,79,100,8.66,FI,1593541762
college,64.86,-147.8,53.6,66,75,4.7,US,1593541762
gizo,-8.1,156.84,80.33,78,19,3.85,SB,1593541763
keetmanshoop,-26.58,18.13,57.2,28,0,6.93,NA,1593541763
lagunas,-5.23,-75.68,88.77,58,7,1.81,PE,1593541763
mindif,10.4,14.44,77.92,76,69,9.78,CM,1593541763
buala,-8.14,159.59,78.03,80,19,3.13,SB,1593541764
melbu,68.5,14.83,48.2,76,75,14.99,NO,1593541764
bolobo,-2.17,16.23,81.66,54,71,0.89,CD,1593541764
bima,-8.47,118.72,71.51,89,9,3.71,ID,1593541764
san policarpo,12.18,125.51,80.15,78,52,0.89,PH,1593541764
nuevo ideal,24.89,-105.07,75.04,46,98,9.19,MX,1593541765
caucaia,-3.74,-38.65,86.0,51,20,16.11,BR,1593541542
berdigestyakh,62.1,126.7,62.29,54,0,3.69,RU,1593541765
phonhong,18.5,102.42,77.0,90,98,1.54,LA,1593541765
valcele,45.85,25.68,71.01,70,12,6.49,RO,1593541765
genhe,50.78,121.52,53.55,80,0,1.97,CN,1593541766
afsin,38.25,36.91,65.26,55,0,11.21,TR,1593541766
davila,18.47,120.58,82.71,77,100,13.94,PH,1593541766
tayturka,52.87,103.46,68.16,65,56,2.06,RU,1593541767
inirida,3.87,-67.92,87.17,65,32,2.15,CO,1593541767
jijiga,9.35,42.8,68.59,67,53,16.02,ET,1593541768
san cristobal,7.77,-72.22,95.0,26,20,23.04,VE,1593541488
union,40.63,-74.27,80.01,53,90,7.85,US,1593541680
anadyr,64.75,177.48,44.6,87,75,4.47,RU,1593541770
port keats,-14.25,129.55,65.7,52,94,4.54,AU,1593541770
taber,49.82,-112.15,51.8,93,90,31.09,CA,1593541758
suoyarvi,62.08,32.35,54.1,92,98,11.95,RU,1593541773
saint-augustin,51.23,-58.65,72.99,58,17,15.82,CA,1593541773
anloga,5.79,0.9,78.8,83,20,9.17,GH,1593541774
tuatapere,-46.13,167.68,39.0,83,76,3.0,NZ,1593541775
katobu,-4.94,122.53,73.02,93,1,4.56,ID,1593541776
tongchuan,35.08,109.09,76.8,37,86,3.36,CN,1593541776
rongcheng,30.63,117.85,75.13,89,7,2.42,CN,1593541777
tsagan aman,47.56,46.72,72.64,30,0,7.96,RU,1593541777
stornoway,58.21,-6.39,57.0,93,22,11.41,GB,1593541654
bouna,9.27,-3.0,82.98,66,39,3.62,CI,1593541779
villa maria,-32.41,-63.24,55.0,56,0,15.01,AR,1593541779
madimba,-10.4,40.33,73.4,88,75,9.17,TZ,1593541779
nandi,13.39,77.7,75.2,88,40,10.29,IN,1593541780
ketchikan,55.34,-131.65,60.8,63,75,16.11,US,1593541780
tual,-5.67,132.75,79.3,84,24,19.55,ID,1593541781
lugoba,-6.45,38.33,69.35,87,36,3.2,TZ,1593541781
manokwari,-0.87,134.08,79.75,71,96,5.86,ID,1593541781
neiafu,-18.65,-173.98,75.2,94,40,10.45,TO,1593541782
havre-saint-pierre,50.23,-63.6,71.6,64,1,8.05,CA,1593541783
bedele,8.46,36.35,58.57,100,99,1.72,ET,1593541784
veraval,20.9,70.37,85.01,75,78,5.73,IN,1593541784
lewistown,40.6,-77.57,82.99,48,20,7.74,US,1593541703
ponta delgada,37.73,-25.67,68.0,94,75,17.22,PT,1593541785
seabra,-12.42,-41.77,76.48,55,92,8.05,BR,1593541606
darnah,32.77,22.64,76.68,65,0,18.95,LY,1593541787
luderitz,-26.65,15.16,68.0,26,0,3.36,NA,1593541787
arona,28.1,-16.68,78.01,65,20,23.04,ES,1593541789
ballina,-28.87,153.57,50.0,100,33,6.62,AU,1593541789
fortuna foothills,32.66,-114.41,91.99,29,1,5.37,US,1593541790
vitim,59.45,112.56,64.71,61,2,2.77,RU,1593541790
ginda,30.69,78.49,66.94,82,51,2.8,IN,1593541790
ayame,5.61,-3.16,75.61,90,94,5.17,CI,1593541791
skjern,55.95,8.5,60.01,81,93,4.0,DK,1593541791
evensk,61.95,159.23,48.96,60,0,10.94,RU,1593541792
comodoro rivadavia,-45.87,-67.5,44.6,81,75,4.7,AR,1593541793
schwabisch hall,49.11,9.74,73.0,64,34,5.82,DE,1593541794
paulo afonso,-9.41,-38.21,84.2,51,40,10.29,BR,1593541794
garowe,8.41,48.48,88.07,40,62,23.2,SO,1593541794
puerto escondido,15.85,-97.07,87.8,62,75,10.71,MX,1593541795
karratha,-20.74,116.85,68.99,57,31,3.27,AU,1593541795
riberalta,-10.98,-66.1,91.65,37,38,4.12,BO,1593541796
mayumba,-3.43,10.66,72.16,83,0,5.06,GA,1593541797
gorom-gorom,14.44,-0.24,97.88,30,83,7.02,BF,1593541798
kutum,14.2,24.67,82.44,36,73,9.91,SD,1593541798
port hedland,-20.32,118.57,64.4,63,25,5.82,AU,1593541798
bilma,18.69,12.92,88.86,12,0,2.68,NE,1593541798
seidu,9.02,-10.6,77.65,87,81,1.79,SL,1593541798
champerico,14.3,-91.92,89.6,66,20,6.93,GT,1593541799
beni suef,29.07,31.1,85.51,22,0,17.02,EG,1593541799
odienne,9.51,-7.57,83.93,68,62,1.19,CI,1593541800
gunjur,13.2,-16.73,86.0,70,40,6.93,GM,1593541800
arlit,18.74,7.39,98.04,12,0,6.8,NE,1593541801
kataysk,56.29,62.58,49.98,92,100,4.72,RU,1593541801
mogadishu,2.04,45.34,79.05,80,63,19.8,SO,1593541802
teseney,15.11,36.66,91.71,33,80,11.61,ER,1593541802
ondangwa,-17.92,15.95,66.2,22,0,3.36,NA,1593541803
indianola,41.36,-93.56,80.01,83,90,16.11,US,1593541804
baraboo,43.47,-89.74,89.01,62,40,12.75,US,1593541648
sechura,-5.56,-80.82,77.16,50,0,13.31,PE,1593541805
nemuro,43.32,145.57,56.17,99,100,10.11,JP,1593541805
matamba,-8.98,33.97,53.49,86,89,5.86,TZ,1593541806
salina cruz,16.17,-95.2,86.02,66,100,8.97,MX,1593541807
adrar,20.5,-10.07,105.82,10,66,5.06,MR,1593541808
korla,41.76,86.15,72.68,20,0,6.93,CN,1593541808
rudbar,30.15,62.6,94.86,17,6,15.52,AF,1593541771
brigantine,39.41,-74.36,80.6,57,75,8.05,US,1593541812
jurm,36.86,70.83,70.38,39,100,3.76,AF,1593541812
praya,14.92,-23.51,82.4,54,20,20.8,CV,1593541813
katangli,51.71,143.23,45.07,88,59,0.65,RU,1593541813
kieta,-6.22,155.63,77.72,78,49,1.36,PG,1593541814
sevilla,37.38,-5.98,87.01,50,0,5.01,ES,1593541814
dalbandin,28.89,64.41,86.9,36,8,13.2,PK,1593541815
dalby,-27.18,151.27,52.0,90,36,3.27,AU,1593541815
dudinka,69.41,86.18,53.6,81,16,15.66,RU,1593541816
kahului,20.89,-156.47,82.4,65,40,14.99,US,1593541700
waingapu,-9.66,120.26,72.86,85,15,7.7,ID,1593541817
ariquemes,-9.91,-63.04,91.13,41,0,2.8,BR,1593541818
nuevo cuscatlan,13.65,-89.27,91.4,55,0,5.82,SV,1593541818
teguldet,57.31,88.17,58.55,73,100,3.56,RU,1593541819
blackwater,-23.58,148.88,57.97,85,59,7.34,AU,1593541820
zhashkiv,49.25,30.11,64.54,87,0,6.93,UA,1593541820
russellville,35.28,-93.13,86.0,70,75,8.05,US,1593541821
tenenkou,14.46,-4.92,88.57,45,91,8.14,ML,1593541821
viedma,-40.81,-63.0,48.4,73,100,8.59,AR,1593541601
oyon,-10.67,-76.77,61.63,29,7,3.51,PE,1593541822
turukhansk,65.82,87.98,52.72,86,33,13.27,RU,1593541823
aragarcas,-15.9,-52.25,87.8,33,22,11.41,BR,1593541823
rio bravo,25.98,-98.1,93.2,52,40,16.11,MX,1593541824
beyneu,45.32,55.2,77.74,42,77,7.09,KZ,1593541825
port hueneme,34.15,-119.2,75.0,72,1,11.41,US,1593541825
tortoli,39.93,9.66,78.8,100,5,10.29,IT,1593541825
roma,43.21,-75.46,73.4,69,90,9.17,US,1593541661
port-cartier,50.03,-66.87,69.8,68,40,4.7,CA,1593541826
portland,45.52,-122.68,66.0,68,75,6.93,US,1593541638
olga,43.74,135.29,52.14,84,100,4.5,RU,1593541827
matadi,-5.82,13.45,76.1,67,100,8.01,CD,1593541827
thinadhoo,0.53,72.93,84.6,62,69,2.51,MV,1593541827
santa rosa,14.31,121.11,81.0,78,75,3.8,PH,1593541828
half moon bay,37.46,-122.43,80.01,68,5,6.93,US,1593541539
sao domingos do maranhao,-5.58,-44.39,88.16,50,44,4.47,BR,1593541828
pokrovsk,48.28,37.18,69.85,74,8,5.75,UA,1593541829
husavik,66.04,-17.34,53.6,58,1,13.87,IS,1593541829
ossora,59.24,163.07,51.71,81,100,12.12,RU,1593541831
bogdanovich,56.78,62.05,47.75,92,100,6.69,RU,1593541831
brownsville,25.9,-97.5,91.99,66,75,20.8,US,1593541750
san rafael,-34.62,-68.33,49.26,50,95,5.68,AR,1593541832
tecoanapa,16.52,-98.75,88.61,50,13,9.33,MX,1593541834
buin,-33.73,-70.75,55.4,62,100,0.83,CL,1593541835
biak,-0.91,122.88,75.76,84,67,6.44,ID,1593541835
sola,-13.88,167.55,77.34,80,100,25.77,VU,1593541836
saint-pierre,-21.34,55.48,68.0,60,0,6.93,RE,1593541836
kobylka,52.34,21.2,73.99,50,1,1.01,PL,1593541837
saint anthony,45.02,-93.22,87.01,70,75,10.29,US,1593541837
kabarnet,0.49,35.74,62.6,82,40,2.24,KE,1593541838
waspan,14.74,-83.97,89.6,70,40,5.82,NI,1593541838
paratinga,-12.69,-43.18,87.8,43,1,4.7,BR,1593541839
samfya,-11.36,29.56,68.43,50,62,7.78,ZM,1593541839
bilibino,68.05,166.44,41.92,77,100,5.44,RU,1593541840
clayton,33.53,-84.37,89.6,52,75,8.05,US,1593541841
chara,56.91,118.26,66.4,46,100,3.44,RU,1593541841
loandjili,-4.76,11.86,77.0,73,20,4.7,CG,1593541843
nyurba,63.28,118.33,64.98,69,0,2.93,RU,1593541843
vryburg,-26.96,24.73,48.94,45,0,6.98,ZA,1593541843
sungurlare,42.77,26.78,84.2,42,5,6.93,BG,1593541844
yazman,29.12,71.74,101.05,25,68,5.35,PK,1593541844
tocopilla,-22.09,-70.2,69.28,43,0,5.3,CL,1593541846
williams lake,52.14,-122.14,55.4,71,75,11.41,CA,1593541847
hanyang,32.14,105.51,72.43,84,90,3.09,CN,1593541848
brae,60.4,-1.35,53.6,93,100,17.22,GB,1593541848
kyaiklat,16.43,95.73,78.8,94,75,5.82,MM,1593541849
svetlyy,54.67,20.13,64.4,72,100,4.47,RU,1593541849
cozumel,20.51,-86.95,89.6,66,40,9.17,MX,1593541850
nanortalik,60.14,-45.24,40.68,89,96,5.41,GL,1593541850
ganzhou,28.82,115.43,76.93,91,78,2.42,CN,1593541853
humberto de campos,-2.6,-43.46,82.15,83,91,4.94,BR,1593541854
ranong,9.97,98.63,80.98,78,97,6.58,TH,1593541855
collie,-33.37,116.15,46.99,79,14,4.0,AU,1593541855
vikevag,59.1,5.7,62.6,72,75,16.11,NO,1593541855
pisco,-13.7,-76.22,66.99,78,79,14.0,PE,1593541856
kumluca,36.37,30.29,84.74,39,0,4.74,TR,1593541856
grenfell,-33.9,148.17,44.08,91,0,5.66,AU,1593541856
funadhoo,6.15,73.27,82.78,79,0,6.96,MV,1593541857
verkhoyansk,67.54,133.38,65.26,51,73,0.63,RU,1593541857
salekhard,66.53,66.6,42.78,77,6,10.94,RU,1593541857
katsuura,35.13,140.3,78.01,94,75,19.46,JP,1593541858
pontes e lacerda,-15.23,-59.34,91.78,36,6,8.55,BR,1593541858
wageningen,51.97,5.67,63.0,100,75,13.87,NL,1593541858
vao,-22.67,167.48,68.05,66,0,17.16,NC,1593541858
kongolo,-5.38,27.0,82.81,31,100,3.4,CD,1593541859
angra dos reis,-23.01,-44.32,82.4,48,20,17.22,BR,1593541859
acapulco,16.86,-99.89,87.8,70,40,5.82,MX,1593541579
wanaka,-44.7,169.15,34.0,82,63,1.01,NZ,1593541859
gainesville,29.65,-82.32,89.01,78,90,12.75,US,1593541835
geraldton,-28.77,114.6,60.8,87,90,5.82,AU,1593541839
marsa matruh,31.35,27.25,75.2,83,40,14.99,EG,1593541664
huangchuan,32.13,115.04,74.44,86,46,3.29,CN,1593541860
barra do bugres,-15.07,-57.18,94.32,27,58,8.37,BR,1593541753
santa maria,-29.68,-53.81,59.0,93,90,4.7,BR,1593541860
puerto maldonado,-12.6,-69.18,89.01,47,71,4.36,PE,1593541861
ca mau,9.18,105.15,78.91,84,100,1.57,VN,1593541861
tynda,55.17,124.72,57.87,66,3,2.75,RU,1593541861
kuminskiy,58.67,66.57,47.89,80,23,5.48,RU,1593541861
royan,45.63,-1.03,75.2,57,90,5.82,FR,1593541861
araouane,18.9,-3.53,102.42,12,0,10.33,ML,1593541862
lubbock,33.6,-101.83,96.8,12,1,13.87,US,1593541833
san quintin,30.48,-115.95,68.76,60,0,13.04,MX,1593541862
astoria,46.19,-123.83,57.99,82,90,10.29,US,1593541862
kaka,37.35,59.61,77.58,19,0,2.84,TM,1593541863
ximei,24.96,118.38,84.2,83,20,8.95,CN,1593541863
lukhovka,54.15,45.26,50.58,83,67,5.77,RU,1593541863
chissamba,-12.17,17.33,59.52,34,0,3.56,AO,1593541863
baykit,61.67,96.37,57.63,59,0,0.29,RU,1593541863
sucua,-2.47,-78.17,78.8,57,40,5.82,EC,1593541864
yerbogachen,61.28,108.01,66.47,59,88,2.04,RU,1593541864
